{
  "contents":[
    {"city": "御宿町", "aza": "浜", "name": "堂坂薬師堂", "lat":35.1729631, "lang":140.3442596
      , "url": "https://hotokami.jp/area/chiba/Hkmtp/Hkmtptr/Dmytk/80447/"
      , "imageUrl":""},
    {"city": "勝浦市", "aza": "鵜原", "name": "八坂神社", "lat":35.1393585, "lang":140.2750854
      , "url": "https://hotokami.jp/area/chiba/Hkmta/Hkmtatr/Dksya/48935/"
      , "imageUrl":""},
    {"city": "勝浦市", "aza": "吉尾", "name": "神明神社", "lat":35.1369365, "lang":140.2859562
      , "url": "https://hotokami.jp/area/chiba/Hkmta/Hkmtatr/Dksya/48935/"
      , "imageUrl":""},
    {"city": "鴨川市", "aza": "小湊", "name": "神明神社", "lat":35.1179106, "lang":140.1970139
      , "url": "https://hotokami.jp/area/chiba/Hkmta/Hkmtatr/Dksya/48935/"
      , "imageUrl":""},
    {"city": "勝浦市", "aza": "松部", "name": "八幡神社", "lat":35.1447044, "lang":140.2878473
      , "url": "https://hotokami.jp/area/chiba/Hkmta/Hkmtatr/Dksya/48935/"
      , "imageUrl":""},
    {"city": "勝浦市", "aza": "川津", "name": "川津神社", "lat":35.1453518, "lang":140.3254383
      , "url": "https://hotokami.jp/area/chiba/Hkmta/Hkmtatr/Dksya/48935/"
      , "imageUrl":""},
    {"city": "勝浦市", "aza": "大沢", "name": "八幡神社", "lat":35.1193767, "lang":140.2203316
      , "url": "https://hotokami.jp/area/chiba/Hkmta/Hkmtatr/Dksya/48935/"
      , "imageUrl":""},
    {"city": "勝浦市", "aza": "浜勝浦", "name": "鳴海神社", "lat":35.1403268, "lang":140.3147046
      , "url": "https://hotokami.jp/area/chiba/Hkmta/Hkmtatr/Dksya/48935/"
      , "imageUrl":""},
    {"city": "勝浦市", "aza": "部原", "name": "瀧口神社", "lat":35.1675224, "lang":140.3343353
      , "url": "https://hotokami.jp/area/chiba/Hkmta/Hkmtatr/Dksya/48935/"
      , "imageUrl":""}
    ]
}